[
  {
    "market_name": "香香漢堡",
    "DRType": "西式",
    "BusinessSTime": "上午 06:30:00",
    "BusinessETime": "上午 11:00:00",
    "Tel": "03-4993690",
    "addr": "桃園市龍潭區中正村龍華路471號",
    "context": "贈送餐飲",
    "GBCondition": "其他",
    "Lontitude": 121.217813,
    "Latitude": 24.856247
  },
  {
    "market_name": "麥味登精緻早餐",
    "DRType": "西式",
    "BusinessSTime": "上午 06:30:00",
    "BusinessETime": "上午 11:00:00",
    "Tel": "03-4799765",
    "addr": "桃園市龍潭區龍華路463號",
    "context": "贈送餐飲",
    "GBCondition": "其他",
    "Lontitude": 121.217769,
    "Latitude": 24.856407
  },
  {
    "market_name": "麥味登員林店",
    "DRType": "西式",
    "BusinessSTime": "上午 06:00:00",
    "BusinessETime": "上午 11:00:00",
    "Tel": "03-4794633",
    "addr": "桃園市龍潭區中興路504號",
    "context": "贈送餐飲",
    "GBCondition": "其他",
    "Lontitude": 121.226232,
    "Latitude": 24.871835
  },
  {
    "market_name": "添蓮麵食館",
    "DRType": "中式",
    "BusinessSTime": "上午 09:00:00",
    "BusinessETime": "下午 09:30:00",
    "Tel": "03-4795875",
    "addr": "桃園市龍潭區中興路288-2號",
    "context": "贈送餐飲",
    "GBCondition": "自備筷子或湯匙",
    "Lontitude": 121.233697,
    "Latitude": 24.874133
  },
  {
    "market_name": "四海豆漿",
    "DRType": "中式",
    "BusinessSTime": "上午 05:00:00",
    "BusinessETime": "下午 12:00:00",
    "Tel": "03-4706992",
    "addr": "桃園市龍潭區中興路542號",
    "context": "贈送餐飲",
    "GBCondition": "其他",
    "Lontitude": 121.225635,
    "Latitude": 24.871646
  },
  {
    "market_name": "宋師傅小館",
    "DRType": "中式",
    "BusinessSTime": "上午 11:30:00",
    "BusinessETime": "下午 09:00:00",
    "Tel": "03-4097272",
    "addr": "桃園市龍潭區大昌路二段2-1號",
    "context": "贈送餐飲",
    "GBCondition": "自備筷子或湯匙",
    "Lontitude": 121.22085,
    "Latitude": 24.868606
  },
  {
    "market_name": "元美漢堡店",
    "DRType": "西式",
    "BusinessSTime": "上午 06:00:00",
    "BusinessETime": "上午 11:00:00",
    "Tel": "03-4895141",
    "addr": "桃園市龍潭區龍華路445號",
    "context": "贈送餐飲",
    "GBCondition": "其他",
    "Lontitude": 121.217703,
    "Latitude": 24.856735
  },
  {
    "market_name": "糖糖早餐店",
    "DRType": "西式",
    "BusinessSTime": "上午 06:00:00",
    "BusinessETime": "下午 12:00:00",
    "Tel": "03-4894620",
    "addr": "桃園市龍潭區東龍路296號",
    "context": "贈送餐飲",
    "GBCondition": "自備飲料杯",
    "Lontitude": 121.213722,
    "Latitude": 24.866619
  },
  {
    "market_name": "聯發飲食店",
    "DRType": "中式",
    "BusinessSTime": "上午 10:30:00",
    "BusinessETime": "下午 07:00:00",
    "Tel": "03-4798565",
    "addr": "桃園市龍潭區東龍路155號",
    "context": "贈送餐飲",
    "GBCondition": "其他",
    "Lontitude": 121.214778,
    "Latitude": 24.862935
  },
  {
    "market_name": "早安美芝城",
    "DRType": "西式",
    "BusinessSTime": "上午 05:30:00",
    "BusinessETime": "上午 11:00:00",
    "Tel": "03-4707241",
    "addr": "桃園市龍潭區東龍路378號",
    "context": "贈送餐飲",
    "GBCondition": "其他",
    "Lontitude": 121.213928,
    "Latitude": 24.868379
  },
  {
    "market_name": "品雋早餐店",
    "DRType": "西式",
    "BusinessSTime": "上午 05:00:00",
    "BusinessETime": "下午 01:30:00",
    "Tel": "03-4800334",
    "addr": "桃園市龍潭區神龍路369號",
    "context": "贈送餐飲",
    "GBCondition": "其他",
    "Lontitude": 121.215784,
    "Latitude": 24.857277
  },
  {
    "market_name": "麥軒活力站",
    "DRType": "西式",
    "BusinessSTime": "上午 05:30:00",
    "BusinessETime": "上午 11:00:00",
    "Tel": "03-4707819",
    "addr": "桃園市龍潭區神龍路170號",
    "context": "贈送餐飲",
    "GBCondition": "其他",
    "Lontitude": 121.212916,
    "Latitude": 24.860797
  },
  {
    "market_name": "香之谷",
    "DRType": "西式",
    "BusinessSTime": "上午 06:00:00",
    "BusinessETime": "上午 11:00:00",
    "Tel": "03-4993797",
    "addr": "桃園市龍潭區神龍路41號",
    "context": "贈送餐飲",
    "GBCondition": "自備飲料杯",
    "Lontitude": 121.211838,
    "Latitude": 24.863349
  },
  {
    "market_name": "星港飲食店",
    "DRType": "中式",
    "BusinessSTime": "上午 11:00:00",
    "BusinessETime": "下午 07:00:00",
    "Tel": "03-4792939",
    "addr": "桃園市龍潭區中興路506號",
    "context": "贈送餐飲",
    "GBCondition": "自備筷子或湯匙",
    "Lontitude": 121.226192,
    "Latitude": 24.871825
  },
  {
    "market_name": "豐庭早餐店",
    "DRType": "中式",
    "BusinessSTime": "上午 06:00:00",
    "BusinessETime": "下午 12:00:00",
    "Tel": "03-3836274",
    "addr": "大園區國際路二段764號",
    "context": "贈送餐飲",
    "GBCondition": "自備筷子或湯匙",
    "Lontitude": 121.229658,
    "Latitude": 25.090204
  },
  {
    "market_name": "三寶大腸麵線",
    "DRType": "中式",
    "BusinessSTime": "上午 07:00:00",
    "BusinessETime": "下午 11:00:00",
    "Tel": "03-3861359",
    "addr": "大園區中正東路122-1號",
    "context": "贈送餐飲",
    "GBCondition": "自備筷子或湯匙",
    "Lontitude": 121.201179,
    "Latitude": 25.062484
  },
  {
    "market_name": "麥味登(健新店)",
    "DRType": "西式",
    "BusinessSTime": "上午 05:00:00",
    "BusinessETime": "上午 11:00:00",
    "Tel": "03-3842655",
    "addr": "大園區新生路148號",
    "context": "贈送餐飲",
    "GBCondition": "自備飲料杯",
    "Lontitude": 121.200663,
    "Latitude": 25.063331
  },
  {
    "market_name": "美又美早餐店",
    "DRType": "西式",
    "BusinessSTime": "上午 05:00:00",
    "BusinessETime": "上午 11:00:00",
    "Tel": "03-3854490",
    "addr": "大園區華興路125號",
    "context": "贈送餐飲",
    "GBCondition": "自備飲料杯",
    "Lontitude": 121.194249,
    "Latitude": 25.061532
  },
  {
    "market_name": "麥味登早餐店(華興店)",
    "DRType": "西式",
    "BusinessSTime": "上午 06:00:00",
    "BusinessETime": "上午 11:00:00",
    "Tel": "03-3859638",
    "addr": "大園區華興路109號",
    "context": "贈送餐飲",
    "GBCondition": "自備飲料杯",
    "Lontitude": 121.194073,
    "Latitude": 25.062097
  },
  {
    "market_name": "台北德芳美早餐店(華興店)",
    "DRType": "西式",
    "BusinessSTime": "上午 05:00:00",
    "BusinessETime": "上午 11:00:00",
    "Tel": "03-3857439",
    "addr": "大園區華興路61號",
    "context": "贈送餐飲",
    "GBCondition": "自備飲料杯",
    "Lontitude": 121.193833,
    "Latitude": 25.062923
  },
  {
    "market_name": "美紅小吃店",
    "DRType": "中式",
    "BusinessSTime": "上午 11:00:00",
    "BusinessETime": "下午 02:00:00",
    "Tel": "03-3843822",
    "addr": "大園區新園街48號",
    "context": "贈送餐飲",
    "GBCondition": "自備筷子或湯匙",
    "Lontitude": 121.194415,
    "Latitude": 25.06114
  },
  {
    "market_name": "合仙飲食店",
    "DRType": "中式",
    "BusinessSTime": "上午 11:00:00",
    "BusinessETime": "下午 09:00:00",
    "Tel": "03-3864072",
    "addr": "大園區和平西路6號",
    "context": "贈送餐飲",
    "GBCondition": "自備筷子或湯匙",
    "Lontitude": 121.198939,
    "Latitude": 25.059877
  },
  {
    "market_name": "阿母也古早味",
    "DRType": "中式",
    "BusinessSTime": "上午 12:00:00",
    "BusinessETime": "上午 12:00:00",
    "Tel": "0918-987692",
    "addr": "大園區和平西路與和平二街交叉路口",
    "context": "贈送餐飲",
    "GBCondition": "自備筷子或湯匙",
    "Lontitude": 121.199203,
    "Latitude": 25.060001
  },
  {
    "market_name": "大園牛家莊",
    "DRType": "中式",
    "BusinessSTime": "上午 11:00:00",
    "BusinessETime": "下午 09:00:00",
    "Tel": "03-3842045",
    "addr": "桃園市大園區華興路59號",
    "context": "贈送餐飲",
    "GBCondition": "自備筷子或湯匙",
    "Lontitude": 121.193715,
    "Latitude": 25.063262
  },
  {
    "market_name": "緣生緣漢堡速食店機場店",
    "DRType": "西式",
    "BusinessSTime": "上午 05:00:00",
    "BusinessETime": "上午 11:00:00",
    "Tel": "03-3837646",
    "addr": "桃園市大園區三民路二段61號",
    "context": "贈送餐飲",
    "GBCondition": "自備飲料杯",
    "Lontitude": 121.254268,
    "Latitude": 25.087363
  },
  {
    "market_name": "合味麵食館",
    "DRType": "中式",
    "BusinessSTime": "上午 11:00:00",
    "BusinessETime": "下午 02:00:00",
    "Tel": "03-3858568",
    "addr": "桃園市大園區華興路57號",
    "context": "折價",
    "GBCondition": "自備餐盒",
    "Lontitude": 121.193699,
    "Latitude": 25.063317
  },
  {
    "market_name": "芳美早餐",
    "DRType": "西式",
    "BusinessSTime": "上午 05:00:00",
    "BusinessETime": "下午 12:00:00",
    "Tel": "03-3859685",
    "addr": "桃園市大園區中山南路172號",
    "context": "贈送餐飲",
    "GBCondition": "自備飲料杯",
    "Lontitude": 121.198593,
    "Latitude": 25.060431
  },
  {
    "market_name": "台北德芳美早餐店",
    "DRType": "西式",
    "BusinessSTime": "上午 05:00:00",
    "BusinessETime": "上午 11:00:00",
    "Tel": "03-3841938",
    "addr": "桃園市大園區中正東路116號",
    "context": "贈送餐飲",
    "GBCondition": "自備飲料杯",
    "Lontitude": 121.201041,
    "Latitude": 25.062545
  },
  {
    "market_name": "尚之島(早餐店)",
    "DRType": "西式",
    "BusinessSTime": "上午 05:00:00",
    "BusinessETime": "上午 11:00:00",
    "Tel": "03-3841870",
    "addr": "桃園市大園區中山南路271號",
    "context": "其他優惠",
    "GBCondition": "自備飲料杯",
    "Lontitude": 121.201012,
    "Latitude": 25.059635
  },
  {
    "market_name": "咖啡花茶早點",
    "DRType": "咖啡冷飲",
    "BusinessSTime": "上午 05:30:00",
    "BusinessETime": "上午 11:30:00",
    "Tel": "03-3843291",
    "addr": "桃園市大園區華興路75號",
    "context": "贈送餐飲",
    "GBCondition": "自備飲料杯",
    "Lontitude": 121.193931,
    "Latitude": 25.062645
  },
  {
    "market_name": "麥味登(大園中山店)",
    "DRType": "西式",
    "BusinessSTime": "上午 05:00:00",
    "BusinessETime": "上午 11:30:00",
    "Tel": "03-3862342",
    "addr": "桃園市大園區中山北路57號",
    "context": "其他優惠",
    "GBCondition": "自備飲料杯",
    "Lontitude": 121.196939,
    "Latitude": 25.065379
  },
  {
    "market_name": "聖馥行",
    "DRType": "中式",
    "BusinessSTime": "上午 07:00:00",
    "BusinessETime": "下午 08:30:00",
    "Tel": "(03)3281200#3142",
    "addr": "桃園市龜山區復興街5號(林口長庚B1)",
    "context": "折價",
    "GBCondition": "自備飲料杯",
    "Lontitude": 121.367919,
    "Latitude": 25.060298
  },
  {
    "market_name": "多來家早午餐",
    "DRType": "西式",
    "BusinessSTime": "上午 05:00:00",
    "BusinessETime": "下午 02:00:00",
    "Tel": "(03)3291522",
    "addr": "桃園市龜山區明德路20號",
    "context": "贈送餐飲",
    "GBCondition": "自備飲料杯",
    "Lontitude": 121.337546,
    "Latitude": 24.9933
  },
  {
    "market_name": "見女茶行",
    "DRType": "咖啡冷飲",
    "BusinessSTime": "上午 10:00:00",
    "BusinessETime": "下午 11:00:00",
    "Tel": "(03)3183010",
    "addr": "桃園市龜山區復興北路21號",
    "context": "集點",
    "GBCondition": "自備飲料杯",
    "Lontitude": 121.369375,
    "Latitude": 25.059381
  },
  {
    "market_name": "鮮易寶早餐店",
    "DRType": "西式",
    "BusinessSTime": "上午 05:00:00",
    "BusinessETime": "下午 12:00:00",
    "Tel": "(03)3591108",
    "addr": "桃園市龜山區明德路8號",
    "context": "其他優惠",
    "GBCondition": "自備飲料杯",
    "Lontitude": 121.33734,
    "Latitude": 24.993525
  },
  {
    "market_name": "一番活力早餐",
    "DRType": "西式",
    "BusinessSTime": "上午 06:00:00",
    "BusinessETime": "下午 02:00:00",
    "Tel": "(03)3299039",
    "addr": "桃園市龜山區明德路30號",
    "context": "贈送餐飲",
    "GBCondition": "自備飲料杯",
    "Lontitude": 121.337681,
    "Latitude": 24.993174
  },
  {
    "market_name": "一匙鑽早餐店",
    "DRType": "西式",
    "BusinessSTime": "上午 05:30:00",
    "BusinessETime": "下午 12:00:00",
    "Tel": 932172387,
    "addr": "桃園市龜山區中興路257號",
    "context": "折價",
    "GBCondition": "自備飲料杯",
    "Lontitude": 121.333706,
    "Latitude": 24.990718
  },
  {
    "market_name": "品水源企業社",
    "DRType": "咖啡冷飲",
    "BusinessSTime": "上午 10:00:00",
    "BusinessETime": "下午 10:30:00",
    "Tel": "(03)3963161",
    "addr": "桃園市龜山區復興北路22號",
    "context": "折價",
    "GBCondition": "自備餐盒",
    "Lontitude": 121.369318,
    "Latitude": 25.058941
  },
  {
    "market_name": "早安香芝城",
    "DRType": "西式",
    "BusinessSTime": "上午 05:00:00",
    "BusinessETime": "下午 12:00:00",
    "Tel": "(03)3498250",
    "addr": "桃園市龜山區中興路259號",
    "context": "贈送餐飲",
    "GBCondition": "自備飲料杯",
    "Lontitude": 121.333736,
    "Latitude": 24.990743
  },
  {
    "market_name": "富林漢堡",
    "DRType": "西式",
    "BusinessSTime": "上午 06:00:00",
    "BusinessETime": "下午 12:00:00",
    "Tel": "(03)320-4997",
    "addr": "桃園市龜山區自強東路216號",
    "context": "贈送餐飲",
    "GBCondition": "自備飲料杯",
    "Lontitude": 121.344601,
    "Latitude": 24.996818
  },
  {
    "market_name": "皇寶吉利堡",
    "DRType": "西式",
    "BusinessSTime": "上午 06:00:00",
    "BusinessETime": "下午 01:00:00",
    "Tel": "(03)327-3861",
    "addr": "桃園市龜山區文化二路34巷14弄23號",
    "context": "贈送餐飲",
    "GBCondition": "自備飲料杯",
    "Lontitude": 121.364216,
    "Latitude": 25.05955
  },
  {
    "market_name": "全宥自助餐",
    "DRType": "自助餐",
    "BusinessSTime": "上午 06:00:00",
    "BusinessETime": "下午 08:00:00",
    "Tel": "(03)328-1200#3135",
    "addr": "桃園市龜山區復興街5號(林口長庚地下街)",
    "context": "折價",
    "GBCondition": "自備餐盒",
    "Lontitude": 121.367919,
    "Latitude": 25.060298
  },
  {
    "market_name": "多將商行",
    "DRType": "中式",
    "BusinessSTime": "上午 07:00:00",
    "BusinessETime": "下午 09:00:00",
    "Tel": "(03)328-1200#3158",
    "addr": "桃園市龜山區復興街5號(林口長庚地下街)",
    "context": "折價",
    "GBCondition": "自備餐盒",
    "Lontitude": 121.367919,
    "Latitude": 25.060298
  },
  {
    "market_name": "繹臻企業有限公司",
    "DRType": "中式",
    "BusinessSTime": "上午 08:00:00",
    "BusinessETime": "下午 05:00:00",
    "Tel": "(03)381-5119",
    "addr": "桃園市龜山區復興街5號(林口長庚地下街)",
    "context": "折價",
    "GBCondition": "自備餐盒",
    "Lontitude": 121.367919,
    "Latitude": 25.060298
  },
  {
    "market_name": "元強食品行",
    "DRType": "中式",
    "BusinessSTime": "上午 10:30:00",
    "BusinessETime": "下午 07:00:00",
    "Tel": "0933-759174",
    "addr": "桃園市龜山區復興街5號(林口長庚地下街)",
    "context": "折價",
    "GBCondition": "自備餐盒",
    "Lontitude": 121.367919,
    "Latitude": 25.060298
  },
  {
    "market_name": "巧竹日式料理",
    "DRType": "日式",
    "BusinessSTime": "上午 10:00:00",
    "BusinessETime": "下午 08:00:00",
    "Tel": "0932-111075",
    "addr": "桃園龜山區復興街5號(林口長庚B1)",
    "context": "折價",
    "GBCondition": "自備餐盒",
    "Lontitude": 121.367919,
    "Latitude": 25.060298
  },
  {
    "market_name": "普羅小吃",
    "DRType": "咖啡冷飲",
    "BusinessSTime": "上午 08:00:00",
    "BusinessETime": "下午 09:00:00",
    "Tel": "(03)328-1200#3131",
    "addr": "桃園龜山區復興街5號(林口長庚B1)",
    "context": "折價",
    "GBCondition": "自備餐盒",
    "Lontitude": 121.367919,
    "Latitude": 25.060298
  },
  {
    "market_name": "千百合食品行",
    "DRType": "咖啡冷飲",
    "BusinessSTime": "上午 08:00:00",
    "BusinessETime": "下午 09:00:00",
    "Tel": "(03)320-1200#3132",
    "addr": "桃園龜山區復興街5號(林口長庚B1)",
    "context": "折價",
    "GBCondition": "自備餐盒",
    "Lontitude": 121.367919,
    "Latitude": 25.060298
  },
  {
    "market_name": "呈湟企業社",
    "DRType": "咖啡冷飲",
    "BusinessSTime": "上午 09:00:00",
    "BusinessETime": "下午 07:00:00",
    "Tel": "(03)211-8451",
    "addr": "桃園龜山區復興街5號(林口長庚B1)",
    "context": "折價",
    "GBCondition": "自備餐盒",
    "Lontitude": 121.367919,
    "Latitude": 25.060298
  },
  {
    "market_name": "萬里香",
    "DRType": "中式",
    "BusinessSTime": "上午 06:30:00",
    "BusinessETime": "下午 09:00:00",
    "Tel": "(03)328-1200#3157",
    "addr": "桃園龜山區復興街5號(林口長庚B1)",
    "context": "贈送餐飲",
    "GBCondition": "自備餐盒",
    "Lontitude": 121.367919,
    "Latitude": 25.060298
  },
  {
    "market_name": "運華美食",
    "DRType": "素食",
    "BusinessSTime": "上午 06:00:00",
    "BusinessETime": "下午 07:30:00",
    "Tel": "(03)328-1200#3138",
    "addr": "桃園市龜山區復興街5號(林口長庚地下街)",
    "context": "折價",
    "GBCondition": "自備餐盒",
    "Lontitude": 121.367919,
    "Latitude": 25.060298
  },
  {
    "market_name": "金太陽港式點心",
    "DRType": "中式",
    "BusinessSTime": "上午 07:00:00",
    "BusinessETime": "下午 08:00:00",
    "Tel": "(03)328-1200#3162",
    "addr": "桃園龜山區復興街5號(林口長庚B1)",
    "context": "折價",
    "GBCondition": "自備餐盒",
    "Lontitude": 121.367919,
    "Latitude": 25.060298
  },
  {
    "market_name": "巧吉滷味",
    "DRType": "中式",
    "BusinessSTime": "上午 08:00:00",
    "BusinessETime": "下午 08:00:00",
    "Tel": "(03)320-1200#3305",
    "addr": "桃園龜山區復興街5號(林口長庚B1)",
    "context": "折價",
    "GBCondition": "自備餐盒",
    "Lontitude": 121.367919,
    "Latitude": 25.060298
  },
  {
    "market_name": "吉米地小吃店",
    "DRType": "中式",
    "BusinessSTime": "上午 08:00:00",
    "BusinessETime": "下午 08:00:00",
    "Tel": "(03)328-1200#3140",
    "addr": "桃園龜山區復興街5號(林口長庚B1)",
    "context": "折價",
    "GBCondition": "自備餐盒",
    "Lontitude": 121.367919,
    "Latitude": 25.060298
  },
  {
    "market_name": "新隴區美食店",
    "DRType": "中式",
    "BusinessSTime": "上午 06:30:00",
    "BusinessETime": "下午 08:00:00",
    "Tel": "(03)328-1200#3161",
    "addr": "桃園龜山區復興街5號(林口長庚B1)",
    "context": "折價",
    "GBCondition": "自備餐盒",
    "Lontitude": 121.367919,
    "Latitude": 25.060298
  },
  {
    "market_name": "古都風味小吃",
    "DRType": "中式",
    "BusinessSTime": "上午 09:00:00",
    "BusinessETime": "下午 09:00:00",
    "Tel": "(03)328-1200#3139",
    "addr": "桃園龜山區復興街5號(林口長庚B1)",
    "context": "折價",
    "GBCondition": "自備餐盒",
    "Lontitude": 121.367919,
    "Latitude": 25.060298
  },
  {
    "market_name": "康紀飲食店",
    "DRType": "自助餐",
    "BusinessSTime": "上午 08:00:00",
    "BusinessETime": "下午 08:00:00",
    "Tel": "(03)328-1200#3136",
    "addr": "桃園市龜山區復興街5號(林口長庚地下街)",
    "context": "折價",
    "GBCondition": "自備餐盒",
    "Lontitude": 121.367919,
    "Latitude": 25.060298
  },
  {
    "market_name": "玫瑰家園",
    "DRType": "咖啡冷飲",
    "BusinessSTime": "上午 12:00:00",
    "BusinessETime": "上午 12:00:00",
    "Tel": "02-27201787",
    "addr": "臺北市信義區市府路1號2樓-親子劇場前",
    "context": "其他優惠",
    "GBCondition": "自備飲料杯",
    "Lontitude": 121.563784,
    "Latitude": 25.037523
  },
  {
    "market_name": "祥益素食館",
    "DRType": "素食",
    "BusinessSTime": "上午 11:00:00",
    "BusinessETime": "下午 08:30:00",
    "Tel": "02-27832384",
    "addr": "臺北市南港區成福路22號",
    "context": "折價",
    "GBCondition": "自備餐盒",
    "Lontitude": 121.586057,
    "Latitude": 25.045489
  },
  {
    "market_name": "博德素食餐廳(原承德新素食園)",
    "DRType": "素食",
    "BusinessSTime": "上午 11:00:00",
    "BusinessETime": "下午 01:30:00",
    "Tel": "02-28827528",
    "addr": "臺北市士林區承德路四段308號B1樓",
    "context": "折價",
    "GBCondition": "自備餐盒",
    "Lontitude": 121.518555,
    "Latitude": 25.089666
  },
  {
    "market_name": "有機花園",
    "DRType": "素食",
    "BusinessSTime": "上午 08:00:00",
    "BusinessETime": "下午 04:30:00",
    "Tel": "02-25459338",
    "addr": "臺北市民生東路4段103號2樓",
    "context": "集點",
    "GBCondition": "自備筷子或湯匙",
    "Lontitude": 121.552522,
    "Latitude": 25.058167
  },
  {
    "market_name": "新順發快餐店",
    "DRType": "自助餐",
    "BusinessSTime": "上午 10:30:00",
    "BusinessETime": "下午 08:00:00",
    "Tel": "03-4785042",
    "addr": "桃園市楊梅區中山路172-1號",
    "context": "折價",
    "GBCondition": "自備筷子或湯匙",
    "Lontitude": 121.1437983,
    "Latitude": 24.90729866
  },
  {
    "market_name": "老家食堂",
    "DRType": "中式",
    "BusinessSTime": "上午 10:30:00",
    "BusinessETime": "下午 08:00:00",
    "Tel": "03-4787377",
    "addr": "桃園市楊梅區新成路151號",
    "context": "折價",
    "GBCondition": "自備筷子或湯匙",
    "Lontitude": 121.14688,
    "Latitude": 24.909521
  },
  {
    "market_name": "東北麵食館",
    "DRType": "中式",
    "BusinessSTime": "上午 11:00:00",
    "BusinessETime": "下午 08:00:00",
    "Tel": "03-4754364",
    "addr": "桃園市楊梅區楊新北路335號",
    "context": "贈送餐飲",
    "GBCondition": "自備筷子或湯匙",
    "Lontitude": 121.15503,
    "Latitude": 24.912147
  },
  {
    "market_name": "金都鴨肉麵",
    "DRType": "中式",
    "BusinessSTime": "上午 11:30:00",
    "BusinessETime": "下午 08:00:00",
    "Tel": "03-4810780",
    "addr": "桃園市楊梅區文化街255號",
    "context": "贈送餐飲",
    "GBCondition": "自備筷子或湯匙",
    "Lontitude": 121.183222,
    "Latitude": 24.911093
  },
  {
    "market_name": "老余小吃",
    "DRType": "中式",
    "BusinessSTime": "上午 06:30:00",
    "BusinessETime": "下午 01:00:00",
    "Tel": "03-4780774",
    "addr": "桃園市楊梅區復華街41號",
    "context": "贈送餐飲",
    "GBCondition": "自備筷子或湯匙",
    "Lontitude": 121.143738,
    "Latitude": 24.908252
  },
  {
    "market_name": "東山餃子牛肉麵店",
    "DRType": "中式",
    "BusinessSTime": "上午 10:30:00",
    "BusinessETime": "下午 09:00:00",
    "Tel": "03-4757859",
    "addr": "桃園市楊梅區梅山西街40號",
    "context": "贈送餐飲",
    "GBCondition": "自備筷子或湯匙",
    "Lontitude": 121.145149,
    "Latitude": 24.909737
  },
  {
    "market_name": "甘泉美食坊",
    "DRType": "中式",
    "BusinessSTime": "上午 11:00:00",
    "BusinessETime": "下午 09:00:00",
    "Tel": "(03)475-8969",
    "addr": "楊梅市楊新路48號",
    "context": "贈送餐飲",
    "GBCondition": "自備筷子或湯匙",
    "Lontitude": 121.136232,
    "Latitude": 24.919792
  },
  {
    "market_name": "台灣蔡虱目魚專賣楊梅店",
    "DRType": "中式",
    "BusinessSTime": "上午 10:30:00",
    "BusinessETime": "下午 09:30:00",
    "Tel": "03-4859168",
    "addr": "桃園市楊梅區中山北路1段282號",
    "context": "折價",
    "GBCondition": "自備筷子或湯匙",
    "Lontitude": 121.155887,
    "Latitude": 24.908532
  },
  {
    "market_name": "東海排骨總店",
    "DRType": "中式",
    "BusinessSTime": "上午 10:30:00",
    "BusinessETime": "下午 08:00:00",
    "Tel": "03-4752456",
    "addr": "桃園市楊梅區武營街2號1樓",
    "context": "贈送餐飲",
    "GBCondition": "自備筷子或湯匙",
    "Lontitude": 121.145221,
    "Latitude": 24.909127
  },
  {
    "market_name": "21金小火鍋楊梅店",
    "DRType": "火鍋",
    "BusinessSTime": "上午 11:00:00",
    "BusinessETime": "下午 10:00:00",
    "Tel": "03-4883959",
    "addr": "桃園市楊梅區新成路183號",
    "context": "贈送餐飲",
    "GBCondition": "自備筷子或湯匙",
    "Lontitude": 121.14697,
    "Latitude": 24.908728
  },
  {
    "market_name": "米克諾斯香料廚房",
    "DRType": "西式",
    "BusinessSTime": "上午 11:00:00",
    "BusinessETime": "下午 09:00:00",
    "Tel": "03-4882638",
    "addr": "桃園市楊梅區新農街256號1樓",
    "context": "贈送餐飲",
    "GBCondition": "自備筷子或湯匙",
    "Lontitude": 121.153291,
    "Latitude": 24.909607
  },
  {
    "market_name": "迪化街美食",
    "DRType": "中式",
    "BusinessSTime": "上午 06:30:00",
    "BusinessETime": "下午 06:30:00",
    "Tel": "(03)478-8677",
    "addr": "楊梅市新成路149號",
    "context": "贈送餐飲",
    "GBCondition": "自備筷子或湯匙",
    "Lontitude": 121.146885,
    "Latitude": 24.909568
  },
  {
    "market_name": "珍佳饌小吃館",
    "DRType": "中式",
    "BusinessSTime": "上午 11:00:00",
    "BusinessETime": "下午 09:00:00",
    "Tel": "03-4315326",
    "addr": "桃園市楊梅區梅獅路2段211號",
    "context": "贈送餐飲",
    "GBCondition": "自備筷子或湯匙",
    "Lontitude": 121.177293,
    "Latitude": 24.906397
  },
  {
    "market_name": "雅莉嘉自助餐廳",
    "DRType": "中式",
    "BusinessSTime": "上午 10:30:00",
    "BusinessETime": "下午 08:00:00",
    "Tel": "03-4852091",
    "addr": "楊梅區楊新路86號",
    "context": "贈送餐飲",
    "GBCondition": "自備筷子或湯匙",
    "Lontitude": 121.145276,
    "Latitude": 24.913388
  },
  {
    "market_name": "鼎勝自助餐",
    "DRType": "自助餐",
    "BusinessSTime": "上午 10:00:00",
    "BusinessETime": "下午 07:30:00",
    "Tel": "03-4759860",
    "addr": "桃園市楊梅區新農街248號",
    "context": "贈送餐飲",
    "GBCondition": "自備筷子或湯匙",
    "Lontitude": 121.152987,
    "Latitude": 24.909617
  },
  {
    "market_name": "新梅家常快炒",
    "DRType": "中式",
    "BusinessSTime": "上午 10:00:00",
    "BusinessETime": "下午 09:00:00",
    "Tel": "03-4314875",
    "addr": "桃園市楊梅區瑞溪路2段28號1F",
    "context": "贈送餐飲",
    "GBCondition": "自備筷子或湯匙",
    "Lontitude": 121.177311,
    "Latitude": 24.907465
  },
  {
    "market_name": "大鍋湯風味小吃店",
    "DRType": "中式",
    "BusinessSTime": "上午 10:00:00",
    "BusinessETime": "下午 09:00:00",
    "Tel": "03-4311733",
    "addr": "桃園市楊梅區四維路98號",
    "context": "贈送餐飲",
    "GBCondition": "自備筷子或湯匙",
    "Lontitude": 121.180865,
    "Latitude": 24.913347
  },
  {
    "market_name": "新竹鴨肉麵",
    "DRType": "中式",
    "BusinessSTime": "上午 11:00:00",
    "BusinessETime": "下午 08:30:00",
    "Tel": "03-4780919",
    "addr": "桃園市楊梅區光華街7號",
    "context": "贈送餐飲",
    "GBCondition": "自備筷子或湯匙",
    "Lontitude": 121.145984,
    "Latitude": 24.908275
  },
  {
    "market_name": "樂園飲食店",
    "DRType": "中式",
    "BusinessSTime": "上午 09:30:00",
    "BusinessETime": "下午 08:00:00",
    "Tel": "03-4783266",
    "addr": "桃園市楊梅區大成路23號",
    "context": "贈送餐飲",
    "GBCondition": "自備筷子或湯匙",
    "Lontitude": 121.145493,
    "Latitude": 24.907646
  },
  {
    "market_name": "珍香飲食店",
    "DRType": "中式",
    "BusinessSTime": "上午 10:00:00",
    "BusinessETime": "下午 08:30:00",
    "Tel": "03-4782273",
    "addr": "桃園市楊梅區大成路19號",
    "context": "贈送餐飲",
    "GBCondition": "自備筷子或湯匙",
    "Lontitude": 121.145622,
    "Latitude": 24.908479
  },
  {
    "market_name": "富廣滿味樓",
    "DRType": "中式",
    "BusinessSTime": "上午 10:00:00",
    "BusinessETime": "下午 09:00:00",
    "Tel": "03-4317788",
    "addr": "桃園市楊梅區瑞溪路1段252-1號",
    "context": "贈送餐飲",
    "GBCondition": "自備筷子或湯匙",
    "Lontitude": 121.173937,
    "Latitude": 24.907131
  },
  {
    "market_name": "福記富貴餐廳",
    "DRType": "中式",
    "BusinessSTime": "上午 10:00:00",
    "BusinessETime": "下午 09:00:00",
    "Tel": "03-4785885",
    "addr": "桃園市楊梅區新農街205號",
    "context": "贈送餐飲",
    "GBCondition": "自備筷子或湯匙",
    "Lontitude": 121.151559,
    "Latitude": 24.909817
  },
  {
    "market_name": "健康素食店",
    "DRType": "素食",
    "BusinessSTime": "上午 09:00:00",
    "BusinessETime": "下午 07:30:00",
    "Tel": "03-4756505",
    "addr": "桃園市楊梅區中山路116號",
    "context": "折價",
    "GBCondition": "自備筷子或湯匙",
    "Lontitude": 121.145234,
    "Latitude": 24.907011
  },
  {
    "market_name": "太三元麵館",
    "DRType": "中式",
    "BusinessSTime": "上午 11:00:00",
    "BusinessETime": "下午 08:30:00",
    "Tel": "03-4827502",
    "addr": "桃園市楊梅區新農街二段286號",
    "context": "贈送餐飲",
    "GBCondition": "自備筷子或湯匙",
    "Lontitude": 121.17401,
    "Latitude": 24.912344
  },
  {
    "market_name": "南北合麵食館",
    "DRType": "中式",
    "BusinessSTime": "上午 11:00:00",
    "BusinessETime": "下午 08:00:00",
    "Tel": "03-4755058",
    "addr": "桃園市楊梅區楊新北路337號",
    "context": "折價",
    "GBCondition": "自備筷子或湯匙",
    "Lontitude": 121.15503,
    "Latitude": 24.912147
  },
  {
    "market_name": "川日式小吃店",
    "DRType": "日式",
    "BusinessSTime": "上午 11:00:00",
    "BusinessETime": "下午 09:00:00",
    "Tel": "(03)386-3700",
    "addr": "大園區新生路97號",
    "context": "贈送餐飲",
    "GBCondition": "自備筷子或湯匙",
    "Lontitude": 121.199996,
    "Latitude": 25.064848
  },
  {
    "market_name": "蕭師父麵食館",
    "DRType": "中式",
    "BusinessSTime": "上午 10:00:00",
    "BusinessETime": "下午 09:30:00",
    "Tel": "0919-350-067",
    "addr": "桃園市大園區新生路54號",
    "context": "折價",
    "GBCondition": "自備餐盒",
    "Lontitude": 121.199464,
    "Latitude": 25.065263
  },
  {
    "market_name": "美雲飲食店",
    "DRType": "中式",
    "BusinessSTime": "上午 11:00:00",
    "BusinessETime": "下午 09:00:00",
    "Tel": "0928-211769",
    "addr": "桃園市大園區華興路55號",
    "context": "贈送餐飲",
    "GBCondition": "自備餐盒",
    "Lontitude": 121.193684,
    "Latitude": 25.063372
  },
  {
    "market_name": "張老爹牛肉麵",
    "DRType": "中式",
    "BusinessSTime": "上午 11:00:00",
    "BusinessETime": "下午 09:00:00",
    "Tel": "(03)386-6198",
    "addr": "桃園市大園區中正東路86號",
    "context": "贈送餐飲",
    "GBCondition": "自備餐盒",
    "Lontitude": 121.200312,
    "Latitude": 25.062894
  },
  {
    "market_name": "聖德科斯天然有機門市",
    "DRType": "咖啡冷飲",
    "BusinessSTime": "上午 08:30:00",
    "BusinessETime": "下午 08:30:00",
    "Tel": "(02)2427-0917",
    "addr": "基隆市安樂區樂一路16號",
    "context": "折價",
    "GBCondition": "自備飲料杯",
    "Lontitude": 121.734407,
    "Latitude": 25.13143
  },
  {
    "market_name": "聖德科斯天然有機門市",
    "DRType": "咖啡冷飲",
    "BusinessSTime": "上午 08:00:00",
    "BusinessETime": "下午 08:00:00",
    "Tel": "(02)2599-5670",
    "addr": "台北市大同區重慶北路三段253號",
    "context": "折價",
    "GBCondition": "自備飲料杯",
    "Lontitude": 121.513999,
    "Latitude": 25.071511
  },
  {
    "market_name": "聖德科斯天然有機門市",
    "DRType": "咖啡冷飲",
    "BusinessSTime": "上午 09:00:00",
    "BusinessETime": "下午 09:00:00",
    "Tel": "(02)2557-7838",
    "addr": "台北市大同區民生西路69號",
    "context": "折價",
    "GBCondition": "自備飲料杯",
    "Lontitude": 121.52,
    "Latitude": 25.057696
  },
  {
    "market_name": "聖德科斯天然有機門市",
    "DRType": "咖啡冷飲",
    "BusinessSTime": "上午 08:30:00",
    "BusinessETime": "下午 09:00:00",
    "Tel": "(02)2369-6792",
    "addr": "台北市大安區羅斯福路三段283巷5號",
    "context": "折價",
    "GBCondition": "自備飲料杯",
    "Lontitude": 121.531519,
    "Latitude": 25.01837
  },
  {
    "market_name": "聖德科斯天然有機門市",
    "DRType": "咖啡冷飲",
    "BusinessSTime": "上午 08:00:00",
    "BusinessETime": "下午 09:30:00",
    "Tel": "(02)2739-6988",
    "addr": "台北市大安區和平東路三段109號",
    "context": "折價",
    "GBCondition": "自備飲料杯",
    "Lontitude": 121.551154,
    "Latitude": 25.024595
  },
  {
    "market_name": "聖德科斯天然有機門市",
    "DRType": "咖啡冷飲",
    "BusinessSTime": "上午 10:00:00",
    "BusinessETime": "下午 09:00:00",
    "Tel": "(02)2377-5286",
    "addr": "台北市大安區和平東路三段246號",
    "context": "折價",
    "GBCondition": "自備飲料杯",
    "Lontitude": 121.555049,
    "Latitude": 25.021744
  },
  {
    "market_name": "聖德科斯天然有機門市",
    "DRType": "咖啡冷飲",
    "BusinessSTime": "上午 07:30:00",
    "BusinessETime": "下午 08:30:00",
    "Tel": "(02)2701-6397",
    "addr": "台北市大安區仁愛路四段18號",
    "context": "折價",
    "GBCondition": "自備飲料杯",
    "Lontitude": 121.546315,
    "Latitude": 25.03763
  },
  {
    "market_name": "聖德科斯天然有機門市",
    "DRType": "咖啡冷飲",
    "BusinessSTime": "上午 10:00:00",
    "BusinessETime": "下午 08:00:00",
    "Tel": "(02)2772-1292",
    "addr": "台北市大安區仁愛路四段345巷15弄10號",
    "context": "折價",
    "GBCondition": "自備飲料杯",
    "Lontitude": 121.554475,
    "Latitude": 25.038855
  },
  {
    "market_name": "聖德科斯天然有機門市",
    "DRType": "咖啡冷飲",
    "BusinessSTime": "上午 08:00:00",
    "BusinessETime": "下午 09:00:00",
    "Tel": "(02)2700-9339",
    "addr": "台北市大安區復興南路二段159號",
    "context": "折價",
    "GBCondition": "自備飲料杯",
    "Lontitude": 121.543701,
    "Latitude": 25.028072
  },
  {
    "market_name": "聖德科斯天然有機門市",
    "DRType": "咖啡冷飲",
    "BusinessSTime": "上午 09:30:00",
    "BusinessETime": "下午 08:30:00",
    "Tel": "(02)2362-0638",
    "addr": "台北市大安區泰順街15號",
    "context": "折價",
    "GBCondition": "自備飲料杯",
    "Lontitude": 121.531533,
    "Latitude": 25.025069
  },
  {
    "market_name": "聖德科斯天然有機門市",
    "DRType": "咖啡冷飲",
    "BusinessSTime": "上午 08:00:00",
    "BusinessETime": "下午 09:00:00",
    "Tel": "(02)2701-3552",
    "addr": "台北市大安區信義路四段141號",
    "context": "折價",
    "GBCondition": "自備飲料杯",
    "Lontitude": 121.549524,
    "Latitude": 25.033459
  },
  {
    "market_name": "聖德科斯天然有機門市",
    "DRType": "咖啡冷飲",
    "BusinessSTime": "上午 08:00:00",
    "BusinessETime": "下午 08:30:00",
    "Tel": "(02)2702-5700",
    "addr": "台北市大安區信義路四段40號",
    "context": "折價",
    "GBCondition": "自備飲料杯",
    "Lontitude": 121.544838,
    "Latitude": 25.033156
  },
  {
    "market_name": "聖德科斯天然有機門市",
    "DRType": "咖啡冷飲",
    "BusinessSTime": "上午 07:00:00",
    "BusinessETime": "下午 10:00:00",
    "Tel": "(02)2874-8571",
    "addr": "台北市士林區士東路91巷3號",
    "context": "折價",
    "GBCondition": "自備飲料杯",
    "Lontitude": 121.529059,
    "Latitude": 25.112563
  },
  {
    "market_name": "聖德科斯天然有機門市",
    "DRType": "咖啡冷飲",
    "BusinessSTime": "上午 08:30:00",
    "BusinessETime": "下午 08:30:00",
    "Tel": "(02)2831-5011",
    "addr": "台北市士林區中正路336號",
    "context": "折價",
    "GBCondition": "自備飲料杯",
    "Lontitude": 121.522182,
    "Latitude": 25.094639
  },
  {
    "market_name": "聖德科斯天然有機門市",
    "DRType": "咖啡冷飲",
    "BusinessSTime": "上午 10:00:00",
    "BusinessETime": "下午 09:00:00",
    "Tel": "(02)2873-1023",
    "addr": "台北市士林區天母西路28號",
    "context": "折價",
    "GBCondition": "自備飲料杯",
    "Lontitude": 121.52661,
    "Latitude": 25.118314
  },
  {
    "market_name": "聖德科斯天然有機門市",
    "DRType": "咖啡冷飲",
    "BusinessSTime": "上午 10:00:00",
    "BusinessETime": "下午 08:00:00",
    "Tel": "(02)2930-2788",
    "addr": "台北市文山區羅斯福路六段210號",
    "context": "折價",
    "GBCondition": "自備飲料杯",
    "Lontitude": 121.540789,
    "Latitude": 24.993538
  },
  {
    "market_name": "聖德科斯天然有機門市",
    "DRType": "咖啡冷飲",
    "BusinessSTime": "上午 09:00:00",
    "BusinessETime": "下午 09:30:00",
    "Tel": "(02)2931-6757",
    "addr": "台北市文山區興隆路三段14號",
    "context": "折價",
    "GBCondition": "自備飲料杯",
    "Lontitude": 121.554824,
    "Latitude": 25.000634
  },
  {
    "market_name": "聖德科斯天然有機門市",
    "DRType": "咖啡冷飲",
    "BusinessSTime": "上午 08:00:00",
    "BusinessETime": "下午 09:30:00",
    "Tel": "(02)8509-1101",
    "addr": "台北市中山區北安路486號",
    "context": "折價",
    "GBCondition": "自備飲料杯",
    "Lontitude": 121.54541,
    "Latitude": 25.079668
  },
  {
    "market_name": "聖德科斯天然有機門市",
    "DRType": "咖啡冷飲",
    "BusinessSTime": "上午 07:30:00",
    "BusinessETime": "下午 09:30:00",
    "Tel": "(02)2771-2727",
    "addr": "台北市中山區八德路二段318號",
    "context": "折價",
    "GBCondition": "自備飲料杯",
    "Lontitude": 121.542923,
    "Latitude": 25.047201
  },
  {
    "market_name": "聖德科斯天然有機門市",
    "DRType": "咖啡冷飲",
    "BusinessSTime": "上午 08:00:00",
    "BusinessETime": "下午 08:30:00",
    "Tel": "(02)2731-8332",
    "addr": "台北市中山區復興北路50號",
    "context": "折價",
    "GBCondition": "自備飲料杯",
    "Lontitude": 121.543764,
    "Latitude": 25.04974
  },
  {
    "market_name": "聖德科斯天然有機門市",
    "DRType": "咖啡冷飲",
    "BusinessSTime": "上午 08:00:00",
    "BusinessETime": "下午 09:00:00",
    "Tel": "(02)2388-1377",
    "addr": "台北市中正區博愛路146號",
    "context": "折價",
    "GBCondition": "自備飲料杯",
    "Lontitude": 121.511414,
    "Latitude": 25.042619
  },
  {
    "market_name": "聖德科斯天然有機門市",
    "DRType": "咖啡冷飲",
    "BusinessSTime": "上午 08:30:00",
    "BusinessETime": "下午 08:30:00",
    "Tel": "(02)2358-1353",
    "addr": "台北市中正區連雲街74-2號",
    "context": "折價",
    "GBCondition": "自備飲料杯",
    "Lontitude": 121.530006,
    "Latitude": 25.034306
  },
  {
    "market_name": "聖德科斯天然有機門市",
    "DRType": "咖啡冷飲",
    "BusinessSTime": "上午 08:00:00",
    "BusinessETime": "下午 08:30:00",
    "Tel": "(02)3322-1677",
    "addr": "台北市中正區南昌路一段113號",
    "context": "折價",
    "GBCondition": "自備飲料杯",
    "Lontitude": 121.518216,
    "Latitude": 25.030028
  },
  {
    "market_name": "聖德科斯天然有機門市",
    "DRType": "咖啡冷飲",
    "BusinessSTime": "上午 10:00:00",
    "BusinessETime": "下午 08:00:00",
    "Tel": "(02)2794-8569",
    "addr": "台北市內湖區金湖路13號",
    "context": "折價",
    "GBCondition": "自備飲料杯",
    "Lontitude": 121.595444,
    "Latitude": 25.083606
  },
  {
    "market_name": "聖德科斯天然有機門市",
    "DRType": "咖啡冷飲",
    "BusinessSTime": "上午 08:00:00",
    "BusinessETime": "下午 09:00:00",
    "Tel": "(02)8797-1055",
    "addr": "台北市內湖區文德路8號",
    "context": "折價",
    "GBCondition": "自備飲料杯",
    "Lontitude": 121.579007,
    "Latitude": 25.07843
  },
  {
    "market_name": "聖德科斯天然有機門市",
    "DRType": "咖啡冷飲",
    "BusinessSTime": "上午 08:30:00",
    "BusinessETime": "下午 09:30:00",
    "Tel": "(02)2765-8608",
    "addr": "台北市松山區南京東路五段260號",
    "context": "折價",
    "GBCondition": "自備飲料杯",
    "Lontitude": 121.566537,
    "Latitude": 25.051148
  },
  {
    "market_name": "聖德科斯天然有機門市",
    "DRType": "咖啡冷飲",
    "BusinessSTime": "上午 10:00:00",
    "BusinessETime": "下午 08:00:00",
    "Tel": "(02)2712-1357",
    "addr": "台北市松山區敦化北路199巷2弄17號",
    "context": "折價",
    "GBCondition": "自備飲料杯",
    "Lontitude": 121.55009,
    "Latitude": 25.055135
  },
  {
    "market_name": "聖德科斯天然有機門市",
    "DRType": "咖啡冷飲",
    "BusinessSTime": "上午 08:00:00",
    "BusinessETime": "下午 08:30:00",
    "Tel": "(02)2570-3375",
    "addr": "台北市松山區八德路三段20-2號",
    "context": "折價",
    "GBCondition": "自備飲料杯",
    "Lontitude": 121.551219,
    "Latitude": 25.048072
  },
  {
    "market_name": "聖德科斯天然有機門市",
    "DRType": "咖啡冷飲",
    "BusinessSTime": "上午 08:00:00",
    "BusinessETime": "下午 08:30:00",
    "Tel": "(02)2502-8083",
    "addr": "台北市中山區復興北路364號",
    "context": "折價",
    "GBCondition": "自備飲料杯",
    "Lontitude": 121.543965,
    "Latitude": 25.060511
  },
  {
    "market_name": "聖德科斯天然有機門市",
    "DRType": "咖啡冷飲",
    "BusinessSTime": "上午 08:00:00",
    "BusinessETime": "下午 08:30:00",
    "Tel": "(02)2716-0089",
    "addr": "台北市松山區復興北路179號",
    "context": "折價",
    "GBCondition": "自備飲料杯",
    "Lontitude": 121.544307,
    "Latitude": 25.054335
  },
  {
    "market_name": "聖德科斯天然有機門市",
    "DRType": "咖啡冷飲",
    "BusinessSTime": "上午 08:00:00",
    "BusinessETime": "下午 09:00:00",
    "Tel": "(02)2747-2750",
    "addr": "台北市松山區民生東路五段99號",
    "context": "折價",
    "GBCondition": "自備飲料杯",
    "Lontitude": 121.559869,
    "Latitude": 25.058817
  },
  {
    "market_name": "聖德科斯天然有機門市",
    "DRType": "咖啡冷飲",
    "BusinessSTime": "上午 08:30:00",
    "BusinessETime": "下午 08:30:00",
    "Tel": "(02)8770-7939",
    "addr": "台北市松山區南京東路四段113號",
    "context": "折價",
    "GBCondition": "自備飲料杯",
    "Lontitude": 121.554837,
    "Latitude": 25.051815
  },
  {
    "market_name": "聖德科斯天然有機門市",
    "DRType": "咖啡冷飲",
    "BusinessSTime": "上午 07:30:00",
    "BusinessETime": "下午 09:00:00",
    "Tel": "(02)2720-0078",
    "addr": "台北市信義區光復南路417之1號",
    "context": "折價",
    "GBCondition": "自備飲料杯",
    "Lontitude": 121.557719,
    "Latitude": 25.036639
  },
  {
    "market_name": "聖德科斯天然有機門市",
    "DRType": "咖啡冷飲",
    "BusinessSTime": "上午 07:30:00",
    "BusinessETime": "下午 09:30:00",
    "Tel": "(02)2652-2885",
    "addr": "台北市南港區忠孝東路六段8號",
    "context": "折價",
    "GBCondition": "自備飲料杯",
    "Lontitude": 121.583307,
    "Latitude": 25.045294
  },
  {
    "market_name": "聖德科斯天然有機門市",
    "DRType": "咖啡冷飲",
    "BusinessSTime": "上午 07:30:00",
    "BusinessETime": "下午 10:00:00",
    "Tel": "(02)2720-1767",
    "addr": "台北市信義區忠孝東路五段394號",
    "context": "折價",
    "GBCondition": "自備飲料杯",
    "Lontitude": 121.574516,
    "Latitude": 25.040735
  },
  {
    "market_name": "聖德科斯天然有機門市",
    "DRType": "咖啡冷飲",
    "BusinessSTime": "上午 07:30:00",
    "BusinessETime": "下午 09:30:00",
    "Tel": "(02)2758-3096",
    "addr": "台北市信義區莊敬路382號",
    "context": "折價",
    "GBCondition": "自備飲料杯",
    "Lontitude": 121.565242,
    "Latitude": 25.027453
  },
  {
    "market_name": "聖德科斯天然有機門市",
    "DRType": "咖啡冷飲",
    "BusinessSTime": "上午 08:00:00",
    "BusinessETime": "下午 10:00:00",
    "Tel": "(02)2303-1224",
    "addr": "台北市萬華區西園路二段213號",
    "context": "折價",
    "GBCondition": "自備飲料杯",
    "Lontitude": 121.494238,
    "Latitude": 25.027138
  },
  {
    "market_name": "聖德科斯天然有機門市",
    "DRType": "咖啡冷飲",
    "BusinessSTime": "上午 09:00:00",
    "BusinessETime": "下午 10:00:00",
    "Tel": "(02)2331-8388",
    "addr": "台北市萬華區長沙街二段104號",
    "context": "折價",
    "GBCondition": "自備飲料杯",
    "Lontitude": 121.504476,
    "Latitude": 25.040322
  },
  {
    "market_name": "聖德科斯天然有機門市",
    "DRType": "咖啡冷飲",
    "BusinessSTime": "上午 09:00:00",
    "BusinessETime": "下午 09:30:00",
    "Tel": "(02)8262-7833",
    "addr": "新北市土城區裕民路124號",
    "context": "折價",
    "GBCondition": "自備飲料杯",
    "Lontitude": 121.451246,
    "Latitude": 24.986384
  },
  {
    "market_name": "聖德科斯天然有機門市",
    "DRType": "咖啡冷飲",
    "BusinessSTime": "上午 08:30:00",
    "BusinessETime": "下午 09:30:00",
    "Tel": "(02)2672-3019",
    "addr": "新北市三峽區大學路152號",
    "context": "折價",
    "GBCondition": "自備飲料杯",
    "Lontitude": 121.373774,
    "Latitude": 24.945167
  },
  {
    "market_name": "聖德科斯天然有機門市",
    "DRType": "咖啡冷飲",
    "BusinessSTime": "上午 10:00:00",
    "BusinessETime": "下午 08:00:00",
    "Tel": "(02)2940-1755",
    "addr": "新北市永和區中正路176號",
    "context": "折價",
    "GBCondition": "自備飲料杯",
    "Lontitude": 121.515275,
    "Latitude": 24.996845
  },
  {
    "market_name": "聖德科斯天然有機門市",
    "DRType": "咖啡冷飲",
    "BusinessSTime": "上午 10:00:00",
    "BusinessETime": "下午 09:00:00",
    "Tel": "(02)8928-9198",
    "addr": "新北市永和區福和路164號",
    "context": "折價",
    "GBCondition": "自備飲料杯",
    "Lontitude": 121.521252,
    "Latitude": 25.007921
  },
  {
    "market_name": "聖德科斯天然有機門市",
    "DRType": "咖啡冷飲",
    "BusinessSTime": "上午 09:30:00",
    "BusinessETime": "下午 09:30:00",
    "Tel": "(02)2608-6793",
    "addr": "新北市林口區文化三路一段457號",
    "context": "折價",
    "GBCondition": "自備飲料杯",
    "Lontitude": 121.368216,
    "Latitude": 25.074719
  },
  {
    "market_name": "聖德科斯天然有機門市",
    "DRType": "咖啡冷飲",
    "BusinessSTime": "上午 09:00:00",
    "BusinessETime": "下午 08:00:00",
    "Tel": "(02)2629-9599",
    "addr": "新北市淡水區仁愛街14號",
    "context": "折價",
    "GBCondition": "自備飲料杯",
    "Lontitude": 121.446527,
    "Latitude": 25.17038
  },
  {
    "market_name": "聖德科斯天然有機門市",
    "DRType": "咖啡冷飲",
    "BusinessSTime": "上午 09:30:00",
    "BusinessETime": "下午 09:00:00",
    "Tel": "(02)2808-5259",
    "addr": "新北市淡水區民權路53號",
    "context": "折價",
    "GBCondition": "自備飲料杯",
    "Lontitude": 121.459988,
    "Latitude": 25.139095
  },
  {
    "market_name": "聖德科斯天然有機門市",
    "DRType": "咖啡冷飲",
    "BusinessSTime": "上午 09:30:00",
    "BusinessETime": "下午 09:30:00",
    "Tel": "(02)2279-8385",
    "addr": "新北市新莊區中和街59巷8號",
    "context": "折價",
    "GBCondition": "自備飲料杯",
    "Lontitude": 121.447025,
    "Latitude": 25.046918
  },
  {
    "market_name": "聖德科斯天然有機門市",
    "DRType": "咖啡冷飲",
    "BusinessSTime": "上午 10:00:00",
    "BusinessETime": "下午 09:00:00",
    "Tel": "(02)2916-1141",
    "addr": "新北市新店區民權路49號",
    "context": "折價",
    "GBCondition": "自備飲料杯",
    "Lontitude": 121.539831,
    "Latitude": 24.982797
  },
  {
    "market_name": "聖德科斯天然有機門市",
    "DRType": "咖啡冷飲",
    "BusinessSTime": "上午 10:00:00",
    "BusinessETime": "下午 09:00:00",
    "Tel": "(02)2918-1609",
    "addr": "新北市新店區北新路一段267號",
    "context": "折價",
    "GBCondition": "自備飲料杯",
    "Lontitude": 121.540874,
    "Latitude": 24.966576
  },
  {
    "market_name": "聖德科斯天然有機門市",
    "DRType": "咖啡冷飲",
    "BusinessSTime": "上午 09:00:00",
    "BusinessETime": "下午 09:00:00",
    "Tel": "(03)331-9431",
    "addr": "桃園縣桃園市中山路99號",
    "context": "折價",
    "GBCondition": "自備飲料杯",
    "Lontitude": 121.310632,
    "Latitude": 24.994223
  },
  {
    "market_name": "聖德科斯天然有機門市",
    "DRType": "咖啡冷飲",
    "BusinessSTime": "上午 09:30:00",
    "BusinessETime": "下午 09:30:00",
    "Tel": "(03)358-8589",
    "addr": "桃園縣桃園市中正路1373號",
    "context": "折價",
    "GBCondition": "自備飲料杯",
    "Lontitude": 121.29476,
    "Latitude": 25.023616
  },
  {
    "market_name": "聖德科斯天然有機門市",
    "DRType": "咖啡冷飲",
    "BusinessSTime": "上午 08:00:00",
    "BusinessETime": "下午 09:30:00",
    "Tel": "(03)335-7290",
    "addr": "桃園縣桃園市民安路100-2號",
    "context": "折價",
    "GBCondition": "自備飲料杯",
    "Lontitude": 121.299758,
    "Latitude": 24.996482
  },
  {
    "market_name": "聖德科斯天然有機門市",
    "DRType": "咖啡冷飲",
    "BusinessSTime": "上午 09:00:00",
    "BusinessETime": "下午 09:00:00",
    "Tel": "(03)367-0072",
    "addr": "桃園縣八德市國際路42號",
    "context": "折價",
    "GBCondition": "自備飲料杯",
    "Lontitude": 121.293273,
    "Latitude": 24.960712
  },
  {
    "market_name": "聖德科斯天然有機門市",
    "DRType": "咖啡冷飲",
    "BusinessSTime": "上午 09:00:00",
    "BusinessETime": "下午 08:00:00",
    "Tel": "(03)494-1341",
    "addr": "桃園縣中壢市三光路157號",
    "context": "折價",
    "GBCondition": "自備飲料杯",
    "Lontitude": 121.21278,
    "Latitude": 24.963695
  },
  {
    "market_name": "聖德科斯天然有機門市",
    "DRType": "咖啡冷飲",
    "BusinessSTime": "上午 10:00:00",
    "BusinessETime": "下午 09:00:00",
    "Tel": "(03)480-8256",
    "addr": "桃園縣龍潭區建國路86號",
    "context": "折價",
    "GBCondition": "自備飲料杯",
    "Lontitude": 121.234393,
    "Latitude": 24.843029
  },
  {
    "market_name": "聖德科斯天然有機門市",
    "DRType": "咖啡冷飲",
    "BusinessSTime": "上午 10:00:00",
    "BusinessETime": "下午 09:00:00",
    "Tel": "(03)397-9889",
    "addr": "桃園縣龜山區文興路130號",
    "context": "折價",
    "GBCondition": "自備飲料杯",
    "Lontitude": 121.365384,
    "Latitude": 25.056789
  },
  {
    "market_name": "聖德科斯天然有機門市",
    "DRType": "咖啡冷飲",
    "BusinessSTime": "上午 10:00:00",
    "BusinessETime": "下午 08:00:00",
    "Tel": "(03)533-8386",
    "addr": "新竹市北區光華街91號",
    "context": "折價",
    "GBCondition": "自備飲料杯",
    "Lontitude": 120.972117,
    "Latitude": 24.817267
  },
  {
    "market_name": "聖德科斯天然有機門市",
    "DRType": "咖啡冷飲",
    "BusinessSTime": "上午 09:30:00",
    "BusinessETime": "下午 09:00:00",
    "Tel": "(03)528-5588",
    "addr": "新竹市北區西門街106號",
    "context": "折價",
    "GBCondition": "自備飲料杯",
    "Lontitude": 120.963677,
    "Latitude": 24.801715
  },
  {
    "market_name": "聖德科斯天然有機門市",
    "DRType": "咖啡冷飲",
    "BusinessSTime": "上午 09:00:00",
    "BusinessETime": "下午 09:00:00",
    "Tel": "(03)578-9389",
    "addr": "新竹市東區光復路一段265號",
    "context": "折價",
    "GBCondition": "自備飲料杯",
    "Lontitude": 121.019889,
    "Latitude": 24.782128
  },
  {
    "market_name": "聖德科斯天然有機門市",
    "DRType": "咖啡冷飲",
    "BusinessSTime": "上午 10:00:00",
    "BusinessETime": "下午 08:00:00",
    "Tel": "(04)2680-0168",
    "addr": "台中市大甲區仁愛街177,179號",
    "context": "折價",
    "GBCondition": "自備飲料杯",
    "Lontitude": 120.621242,
    "Latitude": 24.353358
  },
  {
    "market_name": "聖德科斯天然有機門市",
    "DRType": "咖啡冷飲",
    "BusinessSTime": "上午 10:00:00",
    "BusinessETime": "下午 08:30:00",
    "Tel": "(04)2487-0136",
    "addr": "台中市大里區益民路二段281號",
    "context": "折價",
    "GBCondition": "自備飲料杯",
    "Lontitude": 120.683747,
    "Latitude": 24.111217
  },
  {
    "market_name": "聖德科斯天然有機門市",
    "DRType": "咖啡冷飲",
    "BusinessSTime": "上午 10:00:00",
    "BusinessETime": "下午 08:00:00",
    "Tel": "(04)2247-1106",
    "addr": "台中市北屯區松竹路二段230號",
    "context": "折價",
    "GBCondition": "自備飲料杯",
    "Lontitude": 120.694089,
    "Latitude": 24.183337
  },
  {
    "market_name": "聖德科斯天然有機門市",
    "DRType": "咖啡冷飲",
    "BusinessSTime": "上午 10:00:00",
    "BusinessETime": "下午 08:00:00",
    "Tel": "(04)2238-0306",
    "addr": "台中市北區崇德路一段647號",
    "context": "折價",
    "GBCondition": "自備飲料杯",
    "Lontitude": 120.68497,
    "Latitude": 24.168108
  },
  {
    "market_name": "聖德科斯天然有機門市",
    "DRType": "咖啡冷飲",
    "BusinessSTime": "上午 10:00:00",
    "BusinessETime": "下午 08:00:00",
    "Tel": "(04)2302-9322",
    "addr": "台中市西區公益路211號",
    "context": "折價",
    "GBCondition": "自備飲料杯",
    "Lontitude": 120.660419,
    "Latitude": 24.150659
  },
  {
    "market_name": "聖德科斯天然有機門市",
    "DRType": "咖啡冷飲",
    "BusinessSTime": "上午 10:00:00",
    "BusinessETime": "下午 08:00:00",
    "Tel": "(04)2327-4346",
    "addr": "台中市西屯區大墩路958號",
    "context": "折價",
    "GBCondition": "自備飲料杯",
    "Lontitude": 120.651644,
    "Latitude": 24.158052
  },
  {
    "market_name": "聖德科斯天然有機門市",
    "DRType": "咖啡冷飲",
    "BusinessSTime": "上午 09:00:00",
    "BusinessETime": "下午 08:00:00",
    "Tel": "(04)2587-5274",
    "addr": "台中市東勢區豐勢路419號",
    "context": "折價",
    "GBCondition": "自備飲料杯",
    "Lontitude": 120.828586,
    "Latitude": 24.256411
  },
  {
    "market_name": "聖德科斯天然有機門市",
    "DRType": "咖啡冷飲",
    "BusinessSTime": "上午 10:00:00",
    "BusinessETime": "下午 08:00:00",
    "Tel": "(04)2251-5552",
    "addr": "台中市南屯區黎明路二段304號",
    "context": "折價",
    "GBCondition": "自備飲料杯",
    "Lontitude": 120.63578,
    "Latitude": 24.149322
  },
  {
    "market_name": "聖德科斯天然有機門市",
    "DRType": "咖啡冷飲",
    "BusinessSTime": "上午 09:00:00",
    "BusinessETime": "下午 08:30:00",
    "Tel": "(04)2524-0911",
    "addr": "台中市豐原區圓環東路693號",
    "context": "折價",
    "GBCondition": "自備飲料杯",
    "Lontitude": 120.729093,
    "Latitude": 24.252327
  },
  {
    "market_name": "聖德科斯天然有機門市",
    "DRType": "咖啡冷飲",
    "BusinessSTime": "上午 09:00:00",
    "BusinessETime": "下午 09:00:00",
    "Tel": "(04)836-0066",
    "addr": "彰化縣員林鎮靜修路73號",
    "context": "折價",
    "GBCondition": "自備飲料杯",
    "Lontitude": 120.565396,
    "Latitude": 23.962153
  },
  {
    "market_name": "聖德科斯天然有機門市",
    "DRType": "咖啡冷飲",
    "BusinessSTime": "上午 09:30:00",
    "BusinessETime": "下午 09:00:00",
    "Tel": "(05)537-3631",
    "addr": "雲林縣斗六市長春路18號",
    "context": "折價",
    "GBCondition": "自備飲料杯",
    "Lontitude": 120.540905,
    "Latitude": 23.713436
  },
  {
    "market_name": "聖德科斯天然有機門市",
    "DRType": "咖啡冷飲",
    "BusinessSTime": "上午 09:30:00",
    "BusinessETime": "下午 08:30:00",
    "Tel": "(05)283-0173",
    "addr": "嘉義市西區新民路615號",
    "context": "折價",
    "GBCondition": "自備飲料杯",
    "Lontitude": 120.440074,
    "Latitude": 23.466276
  },
  {
    "market_name": "聖德科斯天然有機門市",
    "DRType": "咖啡冷飲",
    "BusinessSTime": "上午 10:00:00",
    "BusinessETime": "下午 08:00:00",
    "Tel": "(05)276-2776",
    "addr": "嘉義市東區中山路24號",
    "context": "折價",
    "GBCondition": "自備飲料杯",
    "Lontitude": 120.46252,
    "Latitude": 23.48271
  },
  {
    "market_name": "聖德科斯天然有機門市",
    "DRType": "咖啡冷飲",
    "BusinessSTime": "上午 10:00:00",
    "BusinessETime": "下午 09:00:00",
    "Tel": "(06)258-5698",
    "addr": "台南市中西區中華西路二段773號",
    "context": "折價",
    "GBCondition": "自備飲料杯",
    "Lontitude": 120.186651,
    "Latitude": 23.004165
  },
  {
    "market_name": "聖德科斯天然有機門市",
    "DRType": "咖啡冷飲",
    "BusinessSTime": "上午 08:00:00",
    "BusinessETime": "下午 08:30:00",
    "Tel": "(06)229-4061",
    "addr": "台南市中西區南門路75號",
    "context": "折價",
    "GBCondition": "自備飲料杯",
    "Lontitude": 120.204763,
    "Latitude": 22.989401
  },
  {
    "market_name": "聖德科斯天然有機門市",
    "DRType": "咖啡冷飲",
    "BusinessSTime": "上午 09:00:00",
    "BusinessETime": "下午 09:30:00",
    "Tel": "(06)252-5859",
    "addr": "台南市北區和緯路二段229號",
    "context": "折價",
    "GBCondition": "自備飲料杯",
    "Lontitude": 120.205226,
    "Latitude": 23.012156
  },
  {
    "market_name": "聖德科斯天然有機門市",
    "DRType": "咖啡冷飲",
    "BusinessSTime": "上午 10:00:00",
    "BusinessETime": "下午 08:00:00",
    "Tel": "(06)358-5747",
    "addr": "台南市北區文賢路1090號",
    "context": "折價",
    "GBCondition": "自備飲料杯",
    "Lontitude": 120.193752,
    "Latitude": 23.015526
  },
  {
    "market_name": "聖德科斯天然有機門市",
    "DRType": "咖啡冷飲",
    "BusinessSTime": "上午 10:00:00",
    "BusinessETime": "下午 09:00:00",
    "Tel": "(06)201-2769",
    "addr": "台南市永康區中華路488號",
    "context": "折價",
    "GBCondition": "自備飲料杯",
    "Lontitude": 120.232202,
    "Latitude": 23.011595
  },
  {
    "market_name": "聖德科斯天然有機門市",
    "DRType": "咖啡冷飲",
    "BusinessSTime": "上午 09:20:00",
    "BusinessETime": "下午 09:20:00",
    "Tel": "(06)264-8169",
    "addr": "台南市南區健康路二段258號",
    "context": "折價",
    "GBCondition": "自備飲料杯",
    "Lontitude": 120.190387,
    "Latitude": 22.981794
  },
  {
    "market_name": "聖德科斯天然有機門市",
    "DRType": "咖啡冷飲",
    "BusinessSTime": "上午 08:30:00",
    "BusinessETime": "下午 09:00:00",
    "Tel": "(06)238-1701",
    "addr": "台南市東區東寧路379號",
    "context": "折價",
    "GBCondition": "自備飲料杯",
    "Lontitude": 120.228844,
    "Latitude": 22.989922
  },
  {
    "market_name": "聖德科斯天然有機門市",
    "DRType": "咖啡冷飲",
    "BusinessSTime": "上午 10:00:00",
    "BusinessETime": "下午 08:00:00",
    "Tel": "(06)590-8961",
    "addr": "台南市新化區中山路238號",
    "context": "折價",
    "GBCondition": "自備飲料杯",
    "Lontitude": 120.308156,
    "Latitude": 23.036083
  },
  {
    "market_name": "聖德科斯天然有機門市",
    "DRType": "咖啡冷飲",
    "BusinessSTime": "上午 10:00:00",
    "BusinessETime": "下午 09:00:00",
    "Tel": "(07)341-9935",
    "addr": "高雄市三民區河堤路556號",
    "context": "折價",
    "GBCondition": "自備飲料杯",
    "Lontitude": 120.314345,
    "Latitude": 22.665994
  },
  {
    "market_name": "聖德科斯天然有機門市",
    "DRType": "咖啡冷飲",
    "BusinessSTime": "上午 10:00:00",
    "BusinessETime": "下午 09:00:00",
    "Tel": "(07)556-0485",
    "addr": "高雄市左營區富國路37號",
    "context": "折價",
    "GBCondition": "自備飲料杯",
    "Lontitude": 120.306439,
    "Latitude": 22.65763
  },
  {
    "market_name": "聖德科斯天然有機門市",
    "DRType": "咖啡冷飲",
    "BusinessSTime": "上午 09:00:00",
    "BusinessETime": "下午 09:00:00",
    "Tel": "(07)216-1398",
    "addr": "高雄市前金區中華三路77之1號",
    "context": "折價",
    "GBCondition": "自備飲料杯",
    "Lontitude": 120.296477,
    "Latitude": 22.627085
  },
  {
    "market_name": "聖德科斯天然有機門市",
    "DRType": "咖啡冷飲",
    "BusinessSTime": "上午 10:00:00",
    "BusinessETime": "下午 08:00:00",
    "Tel": "(07)331-2595",
    "addr": "高雄市前鎮區林森三路182號",
    "context": "折價",
    "GBCondition": "自備飲料杯",
    "Lontitude": 120.30891,
    "Latitude": 22.61463
  },
  {
    "market_name": "聖德科斯天然有機門市",
    "DRType": "咖啡冷飲",
    "BusinessSTime": "上午 10:00:00",
    "BusinessETime": "下午 08:00:00",
    "Tel": "(07)536-8555",
    "addr": "高雄市前鎮區鄭和南路311號",
    "context": "折價",
    "GBCondition": "自備飲料杯",
    "Lontitude": 120.315329,
    "Latitude": 22.605695
  },
  {
    "market_name": "聖德科斯天然有機門市",
    "DRType": "咖啡冷飲",
    "BusinessSTime": "上午 09:30:00",
    "BusinessETime": "下午 09:00:00",
    "Tel": "(07)719-5538",
    "addr": "高雄市苓雅區正義路180之7號",
    "context": "折價",
    "GBCondition": "自備飲料杯",
    "Lontitude": 120.340204,
    "Latitude": 22.631868
  },
  {
    "market_name": "聖德科斯天然有機門市",
    "DRType": "咖啡冷飲",
    "BusinessSTime": "上午 09:00:00",
    "BusinessETime": "下午 09:00:00",
    "Tel": "(07)721-0786",
    "addr": "高雄市苓雅區林德街35號",
    "context": "折價",
    "GBCondition": "自備飲料杯",
    "Lontitude": 120.317836,
    "Latitude": 22.624151
  },
  {
    "market_name": "聖德科斯天然有機門市",
    "DRType": "咖啡冷飲",
    "BusinessSTime": "上午 10:00:00",
    "BusinessETime": "下午 09:00:00",
    "Tel": "(07)271-1126",
    "addr": "高雄市新興區中正三路67,69號",
    "context": "折價",
    "GBCondition": "自備飲料杯",
    "Lontitude": 120.30276,
    "Latitude": 22.631573
  },
  {
    "market_name": "聖德科斯天然有機門市",
    "DRType": "咖啡冷飲",
    "BusinessSTime": "上午 10:00:00",
    "BusinessETime": "下午 09:00:00",
    "Tel": "(07)586-8888",
    "addr": "高雄市鼓山區美術南二路248號",
    "context": "折價",
    "GBCondition": "自備飲料杯",
    "Lontitude": 120.285041,
    "Latitude": 22.654245
  },
  {
    "market_name": "聖德科斯天然有機門市",
    "DRType": "咖啡冷飲",
    "BusinessSTime": "上午 09:00:00",
    "BusinessETime": "下午 09:00:00",
    "Tel": "(07)812-9866",
    "addr": "高雄市鳳山區五甲二路554號",
    "context": "折價",
    "GBCondition": "自備飲料杯",
    "Lontitude": 120.333139,
    "Latitude": 22.596495
  },
  {
    "market_name": "聖德科斯天然有機門市",
    "DRType": "咖啡冷飲",
    "BusinessSTime": "上午 09:00:00",
    "BusinessETime": "下午 09:00:00",
    "Tel": "(07)743-9566",
    "addr": "高雄市鳳山區自由路18號",
    "context": "折價",
    "GBCondition": "自備飲料杯",
    "Lontitude": 120.354311,
    "Latitude": 22.626094
  },
  {
    "market_name": "聖德科斯天然有機門市",
    "DRType": "咖啡冷飲",
    "BusinessSTime": "上午 10:00:00",
    "BusinessETime": "下午 08:00:00",
    "Tel": "(08)736-4869",
    "addr": "屏東縣屏東市建豐路274號",
    "context": "折價",
    "GBCondition": "自備飲料杯",
    "Lontitude": 120.501959,
    "Latitude": 22.676922
  },
  {
    "market_name": "聖德科斯天然有機門市",
    "DRType": "咖啡冷飲",
    "BusinessSTime": "上午 10:00:00",
    "BusinessETime": "下午 08:00:00",
    "Tel": "(08)734-1212",
    "addr": "屏東縣屏東市中正路161號",
    "context": "折價",
    "GBCondition": "自備飲料杯",
    "Lontitude": 120.490433,
    "Latitude": 22.677648
  },
  {
    "market_name": "聖德科斯天然有機門市",
    "DRType": "咖啡冷飲",
    "BusinessSTime": "上午 10:00:00",
    "BusinessETime": "下午 08:00:00",
    "Tel": "(03)933-3551",
    "addr": "宜蘭縣宜蘭市中山路二段139號",
    "context": "折價",
    "GBCondition": "自備飲料杯",
    "Lontitude": 121.754761,
    "Latitude": 24.747136
  },
  {
    "market_name": "聖德科斯天然有機門市",
    "DRType": "咖啡冷飲",
    "BusinessSTime": "上午 07:30:00",
    "BusinessETime": "下午 09:30:00",
    "Tel": "(03)957-1818",
    "addr": "宜蘭縣羅東鎮中正南路142號",
    "context": "折價",
    "GBCondition": "自備飲料杯",
    "Lontitude": 121.770936,
    "Latitude": 24.671099
  },
  {
    "market_name": "聖德科斯天然有機門市",
    "DRType": "咖啡冷飲",
    "BusinessSTime": "上午 07:30:00",
    "BusinessETime": "下午 09:30:00",
    "Tel": "(039)566-998",
    "addr": "宜蘭縣羅東鎮倉前路99,101號",
    "context": "折價",
    "GBCondition": "自備飲料杯",
    "Lontitude": 121.768043,
    "Latitude": 24.68116
  },
  {
    "market_name": "聖德科斯天然有機門市",
    "DRType": "咖啡冷飲",
    "BusinessSTime": "上午 07:30:00",
    "BusinessETime": "下午 09:00:00",
    "Tel": "(03)856-2818",
    "addr": "花蓮縣吉安鄉自強路632號",
    "context": "折價",
    "GBCondition": "自備飲料杯",
    "Lontitude": 121.593605,
    "Latitude": 23.988648
  }
]